{"type":"FeatureCollection","features":[{"type":"Feature","properties":{"Year":2020,"Type":"Office","Project":"WPP","Address":" 333 N Green St ","Zip Code":60607,"COMBINE":"333 N Green St, 60607, Chicago, Illinois","Sub-Market":"Fulton Market","Developer":"SBC","Status":"Existing","GFA":547000},"geometry":{"type":"Point","coordinates":[-87.6479,41.8877]}},{"type":"Feature","properties":{"Year":2020,"Type":"Office","Project":"B of A","Address":" 110 N Wacker Dr ","Zip Code":60606,"COMBINE":"110 N Wacker Dr, 60606, Chicago, Illinois","Sub-Market":"West Loop","Developer":"RIDC/HHC","Status":"Existing","GFA":1300000},"geometry":{"type":"Point","coordinates":[-87.6375,41.8837]}},{"type":"Feature","properties":{"Year":2020,"Type":"Office","Project":"Spectre","Address":" 167 N Green St ","Zip Code":60607,"COMBINE":"167 N Green St, 60607, Chicago, Illinois","Sub-Market":"Fulton Market","Developer":"Shapack / Focus","Status":"Existing","GFA":656500},"geometry":{"type":"Point","coordinates":[-87.6478,41.8854]}},{"type":"Feature","properties":{"Year":2020,"Type":"Office","Project":"West End Fulton","Address":" 1375 W Fulton Market St ","Zip Code":60607,"COMBINE":"1375 W Fulton Market St, 60607, Chicago, Illinois","Sub-Market":"Fulton Market","Developer":"Trammel Crow","Status":"Existing","GFA":315000},"geometry":{"type":"Point","coordinates":[-87.6618,41.8862]}},{"type":"Feature","properties":{"Year":2022,"Type":"Office","Project":"Union Station","Address":" 225 S Canal St ","Zip Code":60606,"COMBINE":"225 S Canal St, 60606, Chicago, Illinois","Sub-Market":"West Loop","Developer":"RIDC/DRW","Status":"Existing","GFA":1350000},"geometry":{"type":"Point","coordinates":[-87.6407,41.8778]}},{"type":"Feature","properties":{"Year":2024,"Type":"Office","Project":"Salesforce","Address":" 343 W Wolf Point Plaza ","Zip Code":60654,"COMBINE":"343 W Wolf Point Plaza, 60654, Chicago, Illinois","Sub-Market":"River North","Developer":"Hines","Status":"Existing","GFA":1300000},"geometry":{"type":"Point","coordinates":[-87.6377,41.887]}},{"type":"Feature","properties":{"Year":2022,"Type":"Office","Project":"Thor","Address":"800 W Fulton Market","Zip Code":60607,"COMBINE":"800 W Fulton Market, 60607, Chicago, Illinois","Sub-Market":"Fulton Market","Developer":"Thor","Status":"Existing","GFA":400000},"geometry":{"type":"Point","coordinates":[-87.6481,41.8871]}},{"type":"Feature","properties":{"Year":2018,"Type":"Office","Project":"CDW","Address":" 625 Adams St ","Zip Code":60661,"COMBINE":"625 Adams St, 60661, Chicago, Illinois","Sub-Market":"West Loop","Developer":"White Oak","Status":"Existing","GFA":425000},"geometry":{"type":"Point","coordinates":[-87.6436,41.8786]}},{"type":"Feature","properties":{"Year":2019,"Type":"Office","Project":"145 S Wells","Address":"145 S Wells St","Zip Code":60606,"COMBINE":"145 S Wells St, 60606, Chicago, Illinois","Sub-Market":"Loop","Developer":"Moceri & Roszak","Status":"Existing","GFA":206055},"geometry":{"type":"Point","coordinates":[-87.6334,41.8798]}},{"type":"Feature","properties":{"Year":2018,"Type":"Office","Project":"Twelve01West","Address":" 1201 W Lake St ","Zip Code":60607,"COMBINE":"1201 W Lake St, 60607, Chicago, Illinois","Sub-Market":"Fulton Market","Developer":"McCaffery","Status":"Existing","GFA":135000},"geometry":{"type":"Point","coordinates":[-87.6573,41.885]}},{"type":"Feature","properties":{"Year":2001,"Type":"Office","Project":"UBS","Address":" 1 N Wacker Dr ","Zip Code":60606,"COMBINE":"1 N Wacker Dr, 60606, Chicago, Illinois","Sub-Market":"West Loop","Developer":"TJBC","Status":"Existing","GFA":1373754},"geometry":{"type":"Point","coordinates":[-87.6363,41.8823]}},{"type":"Feature","properties":{"Year":2003,"Type":"Office","Project":"Citadel Center","Address":" 131 S Dearborn St ","Zip Code":60603,"COMBINE":"131 S Dearborn St, 60603, Chicago, Illinois","Sub-Market":"Loop","Developer":"Prime Group","Status":"Existing","GFA":1504000},"geometry":{"type":"Point","coordinates":[-87.629,41.8797]}},{"type":"Feature","properties":{"Year":2004,"Type":"Office","Project":"Deloitte","Address":" 111 S Wacker Dr ","Zip Code":60606,"COMBINE":"111 S Wacker Dr, 60606, Chicago, Illinois","Sub-Market":"West Loop","Developer":"TJBC","Status":"Existing","GFA":1027683},"geometry":{"type":"Point","coordinates":[-87.6365,41.8803]}},{"type":"Feature","properties":{"Year":2005,"Type":"Office","Project":"Hyatt","Address":" 71 S Wacker Dr ","Zip Code":60654,"COMBINE":"71 S Wacker Dr, 60654, Chicago, Illinois","Sub-Market":"West Loop","Developer":"Pritzker","Status":"Existing","GFA":1490825},"geometry":{"type":"Point","coordinates":[-87.636,41.8809]}},{"type":"Feature","properties":{"Year":2005,"Type":"Office","Project":"Sidley","Address":" 1 S Dearborn St ","Zip Code":60603,"COMBINE":"1 S Dearborn St, 60603, Chicago, Illinois","Sub-Market":"Loop","Developer":"Hines","Status":"Existing","GFA":820915},"geometry":{"type":"Point","coordinates":[-87.6287,41.8816]}},{"type":"Feature","properties":{"Year":2009,"Type":"Office","Project":"300 N LaSalle","Address":"300 N LaSalle Dr","Zip Code":60654,"COMBINE":"300 N LaSalle Dr, 60654, Chicago, Illinois","Sub-Market":"River North","Developer":"Hines","Status":"Existing","GFA":1302901},"geometry":{"type":"Point","coordinates":[-87.6334,41.8882]}},{"type":"Feature","properties":{"Year":2009,"Type":"Office","Project":"353 N Clark","Address":"353 N Clark St","Zip Code":60654,"COMBINE":"353 N Clark St, 60654, Chicago, Illinois","Sub-Market":"River North","Developer":"Mesirow","Status":"Existing","GFA":1173643},"geometry":{"type":"Point","coordinates":[-87.6303,41.8889]}},{"type":"Feature","properties":{"Year":2009,"Type":"Office","Project":"155 N Wacker","Address":"155 N Wacker Dr","Zip Code":60606,"COMBINE":"155 N Wacker Dr, 60606, Chicago, Illinois","Sub-Market":"West Loop","Developer":"TJBC","Status":"Existing","GFA":1152953},"geometry":{"type":"Point","coordinates":[-87.6366,41.8847]}},{"type":"Feature","properties":{"Year":2015,"Type":"Office","Project":"Google","Address":" 1000 W Fulton Market ","Zip Code":60607,"COMBINE":"1000 W Fulton Market, 60607, Chicago, Illinois","Sub-Market":"Fulton Market","Developer":"SBC","Status":"Existing","GFA":531190},"geometry":{"type":"Point","coordinates":[-87.6529,41.8871]}},{"type":"Feature","properties":{"Year":2016,"Type":"Office","Project":"150 Riverside","Address":" 150 N Riverside Plaza ","Zip Code":60606,"COMBINE":"150 N Riverside Plaza, 60606, Chicago, Illinois","Sub-Market":"West Loop","Developer":"RIDC","Status":"Existing","GFA":1225000},"geometry":{"type":"Point","coordinates":[-87.6384,41.8851]}},{"type":"Feature","properties":{"Year":2016,"Type":"Office","Project":"River Point","Address":" 444 N Lake St ","Zip Code":60606,"COMBINE":"444 N Lake St, 60606, Chicago, Illinois","Sub-Market":"West Loop","Developer":"Hines","Status":"Existing","GFA":1065000},"geometry":{"type":"Point","coordinates":[-87.6393,41.8862]}},{"type":"Feature","properties":{"Year":2017,"Type":"Office","Project":"Fulton West","Address":" 1330 W Fulton Market ","Zip Code":60607,"COMBINE":"1330 W Fulton Market, 60607, Chicago, Illinois","Sub-Market":"Fulton Market","Developer":"SBC","Status":"Existing","GFA":290000},"geometry":{"type":"Point","coordinates":[-87.6603,41.887]}},{"type":"Feature","properties":{"Year":2017,"Type":"Office","Project":"165 N Aberdeen","Address":" 165 N Aberdeen St ","Zip Code":60607,"COMBINE":"165 N Aberdeen St, 60607, Chicago, Illinois","Sub-Market":"Fulton Market","Developer":"MCZ","Status":"Existing","GFA":40000},"geometry":{"type":"Point","coordinates":[-87.6542,41.8853]}},{"type":"Feature","properties":{"Year":2018,"Type":"Office","Project":"McDonald's","Address":" 1045 W Randolph St ","Zip Code":60607,"COMBINE":"1045 W Randolph St, 60607, Chicago, Illinois","Sub-Market":"Fulton Market","Developer":"SBC","Status":"Existing","GFA":608000},"geometry":{"type":"Point","coordinates":[-87.6539,41.8837]}},{"type":"Feature","properties":{"Year":2018,"Type":"Office","Project":"CH Robinson","Address":" 1515 W Webster Ave ","Zip Code":606014,"COMBINE":"1515 W Webster Ave, 606014, Chicago, Illinois","Sub-Market":"Lincoln Park","Developer":"SBC","Status":"Existing","GFA":200000},"geometry":{"type":"Point","coordinates":[-87.6665,41.9208]}},{"type":"Feature","properties":{"Year":2018,"Type":"Office","Project":"CNA Tower","Address":" 151 N Franklin St ","Zip Code":60606,"COMBINE":"151 N Franklin St, 60606, Chicago, Illinois","Sub-Market":"West Loop","Developer":"TJBC","Status":"Existing","GFA":820000},"geometry":{"type":"Point","coordinates":[-87.6349,41.8848]}},{"type":"Feature","properties":{"Year":2018,"Type":"Office","Project":"412 N Wells","Address":" 412 N Wells St ","Zip Code":60654,"COMBINE":"412 N Wells St, 60654, Chicago, Illinois","Sub-Market":"River North","Developer":"Centrum","Status":"Existing","GFA":50000},"geometry":{"type":"Point","coordinates":[-87.6343,41.8898]}},{"type":"Feature","properties":{"Year":2018,"Type":"Office","Project":"Vendor Village","Address":" 210 N Carpenter St ","Zip Code":60607,"COMBINE":"210 N Carpenter St, 60607, Chicago, Illinois","Sub-Market":"Fulton Market","Developer":"SBC","Status":"Existing","GFA":218000},"geometry":{"type":"Point","coordinates":[-87.6539,41.8858]}},{"type":"Feature","properties":{"Year":2018,"Type":"Office","Project":"Spaces","Address":" 900 W Randolph St ","Zip Code":60607,"COMBINE":"900 W Randolph St, 60607, Chicago, Illinois","Sub-Market":"Fulton Market","Developer":"Tucker","Status":"Existing","GFA":45000},"geometry":{"type":"Point","coordinates":[-87.6501,41.8846]}},{"type":"Feature","properties":{"Year":2019,"Type":"Office","Project":"811 Fulton","Address":" 811 W Fulton Market ","Zip Code":60607,"COMBINE":"811 W Fulton Market, 60607, Chicago, Illinois","Sub-Market":"Fulton Market","Developer":"Shapack","Status":"Existing","GFA":70000},"geometry":{"type":"Point","coordinates":[-87.6478,41.8865]}},{"type":"Feature","properties":{"Year":2019,"Type":"Office","Project":"Mondelez","Address":"905 W Fulton St","Zip Code":60607,"COMBINE":"905 W Fulton St, 60607, Chicago, Illinois","Sub-Market":"Fulton Market","Developer":"Thor","Status":"Existing","GFA":77100},"geometry":{"type":"Point","coordinates":[-87.6501,41.8865]}},{"type":"Feature","properties":{"Year":2025,"Type":"Office","Project":"328 N Carpenter","Address":"328 N Carpenter St","Zip Code":60607,"COMBINE":"328 N Carpenter St, 60607, Chicago, Illinois","Sub-Market":"Fulton Market","Developer":"Murphy","Status":"Planned","GFA":98000},"geometry":{"type":"Point","coordinates":[-87.6537,41.8874]}},{"type":"Feature","properties":{"Year":2025,"Type":"Office","Project":"310 N Sangamon","Address":"310 N Sangamon St","Zip Code":60607,"COMBINE":"310 N Sangamon St, 60607, Chicago, Illinois","Sub-Market":"Fulton Market","Developer":"Tishman","Status":"Planned","GFA":250000},"geometry":{"type":"Point","coordinates":[-87.6512,41.8872]}},{"type":"Feature","properties":{"Year":2025,"Type":"Office","Project":"215 N Peoria","Address":"215 N Peoria St","Zip Code":60607,"COMBINE":"215 N Peoria St, 60607, Chicago, Illinois","Sub-Market":"Fulton Market","Developer":"Wislow/Julmy","Status":"Planned","GFA":120000},"geometry":{"type":"Point","coordinates":[-87.6495,41.8861]}},{"type":"Feature","properties":{"Year":2025,"Type":"Office","Project":"306 W Erie","Address":"308 W Erie Street","Zip Code":60654,"COMBINE":"308 W Erie Street, 60654, Chicago, Illinois","Sub-Market":"River North","Developer":"North Wells Capital","Status":"Planned","GFA":150000},"geometry":{"type":"Point","coordinates":[-87.6361,41.8945]}},{"type":"Feature","properties":{"Year":2025,"Type":"Office","Project":"Coyne - North","Address":"360 N Green St","Zip Code":60607,"COMBINE":"360 N Green St, 60607, Chicago, Illinois","Sub-Market":"Fulton Market","Developer":"SBC","Status":"Planned","GFA":501390},"geometry":{"type":"Point","coordinates":[-87.6492,41.8886]}},{"type":"Feature","properties":{"Year":2025,"Type":"Office","Project":"Pioneer","Address":"1000 W Carroll Ave","Zip Code":60607,"COMBINE":"1000 W Carroll Ave, 60607, Chicago, Illinois","Sub-Market":"Fulton Market","Developer":"SBC","Status":"Planned","GFA":536000},"geometry":{"type":"Point","coordinates":[-87.6527,41.888]}},{"type":"Feature","properties":{"Year":2025,"Type":"Office","Project":"English","Address":"488 N LaSalle St","Zip Code":60654,"COMBINE":"488 N LaSalle St, 60654, Chicago, Illinois","Sub-Market":"River North","Developer":"Jay Javors","Status":"Planned","GFA":180000},"geometry":{"type":"Point","coordinates":[-87.6329,41.8904]}},{"type":"Feature","properties":{"Year":2025,"Type":"Office","Project":"Revel","Address":"1201 W Fulton Market","Zip Code":60607,"COMBINE":"1201 W Fulton Market, 60607, Chicago, Illinois","Sub-Market":"Fulton Market","Developer":"NAI Hiffman","Status":"Planned","GFA":195000},"geometry":{"type":"Point","coordinates":[-87.6572,41.8864]}},{"type":"Feature","properties":{"Year":2025,"Type":"Office","Project":"Bird Tower","Address":"400 N May St","Zip Code":60607,"COMBINE":"400 N May St, 60607, Chicago, Illinois","Sub-Market":"Fulton Market","Developer":"MCZ","Status":"Planned","GFA":324000},"geometry":{"type":"Point","coordinates":[-87.657,41.8893]}},{"type":"Feature","properties":{"Year":2025,"Type":"Office","Project":"375 N Morgan","Address":"375 N Morgan St","Zip Code":60607,"COMBINE":"375 N Morgan St, 60607, Chicago, Illinois","Sub-Market":"Fulton Market","Developer":"Latsko","Status":"Planned","GFA":175000},"geometry":{"type":"Point","coordinates":[-87.652,41.8887]}},{"type":"Feature","properties":{"Year":2025,"Type":"Office","Project":"Nealey Foods","Address":"900 W Fulton Market","Zip Code":60607,"COMBINE":"900 W Fulton Market, 60607, Chicago, Illinois","Sub-Market":"Fulton Market","Developer":"Nealey","Status":"Planned","GFA":199500},"geometry":{"type":"Point","coordinates":[-87.6505,41.8869]}},{"type":"Feature","properties":{"Year":2025,"Type":"Office","Project":"Fulton West(2)","Address":"1301 W Fulton Market","Zip Code":60607,"COMBINE":"1301 W Fulton Market, 60607, Chicago, Illinois","Sub-Market":"Fulton Market","Developer":"SBC","Status":"Planned","GFA":412500},"geometry":{"type":"Point","coordinates":[-87.6598,41.8863]}},{"type":"Feature","properties":{"Year":2025,"Type":"Office","Project":"Coyne - Loft","Address":"330 N Green St","Zip Code":60607,"COMBINE":"330 N Green St, 60607, Chicago, Illinois","Sub-Market":"Fulton Market","Developer":"SBC","Status":"Planned","GFA":675000},"geometry":{"type":"Point","coordinates":[-87.6493,41.8877]}},{"type":"Feature","properties":{"Year":2025,"Type":"Office","Project":"345 N Morgan","Address":"345 N Morgan St","Zip Code":60607,"COMBINE":"345 N Morgan St, 60607, Chicago, Illinois","Sub-Market":"Fulton Market","Developer":"SBC","Status":"Planned","GFA":212000},"geometry":{"type":"Point","coordinates":[-87.6519,41.8882]}},{"type":"Feature","properties":{"Year":2025,"Type":"Office","Project":"Fire Station","Address":"55 W Illinois St","Zip Code":60654,"COMBINE":"55 W Illinois St, 60654, Chicago, Illinois","Sub-Market":"River North","Developer":"Friedman","Status":"Planned","GFA":600000},"geometry":{"type":"Point","coordinates":[-87.63,41.8907]}},{"type":"Feature","properties":{"Year":2025,"Type":"Office","Project":"1100 W Grand","Address":"1100 W Grand Ave","Zip Code":60642,"COMBINE":"1100 W Grand Ave, 60642, Chicago, Illinois","Sub-Market":"Fulton Market","Developer":"SBC","Status":"Planned","GFA":100000},"geometry":{"type":"Point","coordinates":[-87.655,41.8914]}},{"type":"Feature","properties":{"Year":2025,"Type":"Office","Project":"130 N Franklin","Address":"130 N Franklin St","Zip Code":60606,"COMBINE":"130 N Franklin St, 60606, Chicago, Illinois","Sub-Market":"West Loop","Developer":"Tishman","Status":"Planned","GFA":1200000},"geometry":{"type":"Point","coordinates":[-87.6358,41.8837]}},{"type":"Feature","properties":{"Year":2025,"Type":"Office","Project":"Miller & Son","Address":"1229 N North Branch St","Zip Code":60642,"COMBINE":"1229 N North Branch St, 60642, Chicago, Illinois","Sub-Market":"Goose Island","Developer":"Hines","Status":"Planned","GFA":225000},"geometry":{"type":"Point","coordinates":[-87.6562,41.9044]}},{"type":"Feature","properties":{"Year":2025,"Type":"Office","Project":"ADM","Address":"1300 W Carroll Ave","Zip Code":60607,"COMBINE":"1300 W Carroll Ave, 60607, Chicago, Illinois","Sub-Market":"Fulton Market","Developer":"SBC","Status":"Planned","GFA":479160},"geometry":{"type":"Point","coordinates":[-87.6598,41.8879]}},{"type":"Feature","properties":{"Year":2025,"Type":"Office","Project":"Hindman","Address":"224 N Ada St","Zip Code":60607,"COMBINE":"224 N Ada St, 60607, Chicago, Illinois","Sub-Market":"Fulton Market","Developer":"Shapack","Status":"Planned","GFA":135000},"geometry":{"type":"Point","coordinates":[-87.6611,41.8863]}},{"type":"Feature","properties":{"Year":2025,"Type":"Office","Project":"Threadless","Address":"1260 W Madison St","Zip Code":60607,"COMBINE":"1260 W Madison St, 60607, Chicago, Illinois","Sub-Market":"Fulton Market","Developer":"JGR","Status":"Planned","GFA":500000},"geometry":{"type":"Point","coordinates":[-87.6593,41.8822]}},{"type":"Feature","properties":{"Year":2025,"Type":"Office","Project":"601 Monroe","Address":"601 W Monroe St","Zip Code":60661,"COMBINE":"601 W Monroe St, 60661, Chicago, Illinois","Sub-Market":"West Loop","Developer":"Coldwell Banker","Status":"Planned","GFA":735000},"geometry":{"type":"Point","coordinates":[-87.6434,41.8802]}},{"type":"Feature","properties":{"Year":2025,"Type":"Office","Project":"1200 W Carroll","Address":"1200 W Carroll Ave","Zip Code":60607,"COMBINE":"1200 W Carroll Ave, 60607, Chicago, Illinois","Sub-Market":"Far West Loop","Developer":"JLL","Status":"Planned","GFA":550000},"geometry":{"type":"Point","coordinates":[-87.6574,41.8879]}},{"type":"Feature","properties":{"Year":2025,"Type":"Office","Project":"301 S Wacker","Address":"301 S Wacker Dr","Zip Code":60606,"COMBINE":"301 S Wacker Dr, 60606, Chicago, Illinois","Sub-Market":"West Loop","Developer":"John Murphy","Status":"Planned","GFA":1295000},"geometry":{"type":"Point","coordinates":[-87.6363,41.8784]}},{"type":"Feature","properties":{"Year":2025,"Type":"Office","Project":"540 Madison","Address":"540 W Madison St","Zip Code":60661,"COMBINE":"540 W Madison St, 60661, Chicago, Illinois","Sub-Market":"West Loop","Developer":"Joe Mizrachi","Status":"Planned","GFA":616000},"geometry":{"type":"Point","coordinates":[-87.6425,41.8824]}},{"type":"Feature","properties":{"Year":2025,"Type":"Office","Project":"645 Madison","Address":"645 W Madison St","Zip Code":60661,"COMBINE":"645 W Madison St, 60661, Chicago, Illinois","Sub-Market":"West Loop","Developer":"Hines/Golub","Status":"Planned","GFA":530000},"geometry":{"type":"Point","coordinates":[-87.6447,41.8814]}},{"type":"Feature","properties":{"Year":2025,"Type":"Office","Project":"Pickens Kane","Address":"909 W Bliss St","Zip Code":60642,"COMBINE":"909 W Bliss St, 60642, Chicago, Illinois","Sub-Market":"Goose Island","Developer":"R2","Status":"Planned","GFA":285000},"geometry":{"type":"Point","coordinates":[-87.6514,41.9012]}},{"type":"Feature","properties":{"Year":2025,"Type":"Office","Project":"1200 W Fulton","Address":"1200 W Fulton Market","Zip Code":60607,"COMBINE":"1200 W Fulton Market, 60607, Chicago, Illinois","Sub-Market":"Fulton Market","Developer":"IBT Group","Status":"Planned","GFA":900000},"geometry":{"type":"Point","coordinates":[-87.6575,41.8868]}},{"type":"Feature","properties":{"Year":2025,"Type":"Office","Project":"City Tech Center","Address":"1111 W Carroll Ave","Zip Code":60607,"COMBINE":"1111 W Carroll Ave, 60607, Chicago, Illinois","Sub-Market":"Fulton Market","Developer":"Ocean Tomo","Status":"Planned","GFA":535000},"geometry":{"type":"Point","coordinates":[-87.6551,41.8874]}},{"type":"Feature","properties":{"Year":2025,"Type":"Office","Project":"Arthur Harris","Address":"210 N Aberdeen","Zip Code":60607,"COMBINE":"210 N Aberdeen, 60607, Chicago, Illinois","Sub-Market":"Fulton Market","Developer":"LG Development","Status":"Planned","GFA":375000},"geometry":{"type":"Point","coordinates":[-87.6548,41.8858]}},{"type":"Feature","properties":{"Year":2025,"Type":"Office","Project":"Huron/Orleans","Address":"320 W Huron","Zip Code":60654,"COMBINE":"320 W Huron, 60654, Chicago, Illinois","Sub-Market":"River North","Developer":"North Wells Capital","Status":"Planned","GFA":260000},"geometry":{"type":"Point","coordinates":[-87.6368,41.8949]}},{"type":"Feature","properties":{"Year":2025,"Type":"Office","Project":"Paddy's","Address":"800 W Lake St","Zip Code":60661,"COMBINE":"800 W Lake St, 60661, Chicago, Illinois","Sub-Market":"Fulton Market","Developer":"North Park Ventures","Status":"Planned","GFA":228000},"geometry":{"type":"Point","coordinates":[-87.6477,41.8859]}},{"type":"Feature","properties":{"Year":2025,"Type":"Office","Project":"Trib-Grand","Address":"560 W Grand Ave","Zip Code":60654,"COMBINE":"560 W Grand Ave, 60654, Chicago, Illinois","Sub-Market":"River West","Developer":"TBD","Status":"Planned","GFA":1200000},"geometry":{"type":"Point","coordinates":[-87.6424,41.8919]}},{"type":"Feature","properties":{"Year":2025,"Type":"Office","Project":"Trib-Ohio","Address":"500 N Jefferson Blvd","Zip Code":60654,"COMBINE":"500 N Jefferson Blvd, 60654, Chicago, Illinois","Sub-Market":"River West","Developer":"TBD","Status":"Planned","GFA":700000},"geometry":{"type":"Point","coordinates":[-87.6436,41.893]}},{"type":"Feature","properties":{"Year":2025,"Type":"Office","Project":"Trib-Erie","Address":"750 W Erie St","Zip Code":60654,"COMBINE":"750 W Erie St, 60654, Chicago, Illinois","Sub-Market":"River West","Developer":"TBD","Status":"Planned","GFA":450000},"geometry":{"type":"Point","coordinates":[-87.646,41.8935]}},{"type":"Feature","properties":{"Year":2025,"Type":"Office","Project":"Trib-Halsted","Address":"600 N Halsted St","Zip Code":60654,"COMBINE":"600 N Halsted St, 60654, Chicago, Illinois","Sub-Market":"River West","Developer":"TBD","Status":"Planned","GFA":450000},"geometry":{"type":"Point","coordinates":[-87.6474,41.8942]}},{"type":"Feature","properties":{"Year":2025,"Type":"Office","Project":"Trib-Park","Address":"600 N Jefferson Blvd","Zip Code":60654,"COMBINE":"600 N Jefferson Blvd, 60654, Chicago, Illinois","Sub-Market":"River West","Developer":"TBD","Status":"Planned","GFA":700000},"geometry":{"type":"Point","coordinates":[-87.6453,41.8941]}},{"type":"Feature","properties":{"Year":2025,"Type":"Office","Project":"Trib-Park2","Address":"650 N Jefferson Blvd","Zip Code":60654,"COMBINE":"650 N Jefferson Blvd, 60654, Chicago, Illinois","Sub-Market":"River West","Developer":"TBD","Status":"Planned","GFA":1200000},"geometry":{"type":"Point","coordinates":[-87.6463,41.8953]}},{"type":"Feature","properties":{"Year":2025,"Type":"Office","Project":"Trib-701","Address":"701 W Chicago","Zip Code":60654,"COMBINE":"701 W Chicago, 60654, Chicago, Illinois","Sub-Market":"River West","Developer":"TBD","Status":"Planned","GFA":500000},"geometry":{"type":"Point","coordinates":[-87.6449,41.8961]}},{"type":"Feature","properties":{"Year":2025,"Type":"Office","Project":"Trib-700-A","Address":"700 W Chicago","Zip Code":60654,"COMBINE":"700 W Chicago, 60654, Chicago, Illinois","Sub-Market":"River West","Developer":"TBD","Status":"Planned","GFA":450000},"geometry":{"type":"Point","coordinates":[-87.6452,41.897]}},{"type":"Feature","properties":{"Year":2025,"Type":"Office","Project":"Trib-700-B","Address":"700 W Chicago","Zip Code":60654,"COMBINE":"700 W Chicago, 60654, Chicago, Illinois","Sub-Market":"River West","Developer":"TBD","Status":"Planned","GFA":750000},"geometry":{"type":"Point","coordinates":[-87.6473,41.8967]}},{"type":"Feature","properties":{"Year":2025,"Type":"Office","Project":"Trib-700-C","Address":"700 W Chicago","Zip Code":60654,"COMBINE":"700 W Chicago, 60654, Chicago, Illinois","Sub-Market":"River West","Developer":"TBD","Status":"Planned","GFA":500000},"geometry":{"type":"Point","coordinates":[-87.6475,41.8975]}},{"type":"Feature","properties":{"Year":2025,"Type":"Office","Project":"Thompson","Address":"100 W Randolph St","Zip Code":60601,"COMBINE":"100 W Randolph St, 60601, Chicago, Illinois","Sub-Market":"Loop","Developer":"TBD","Status":"Planned","GFA":1500000},"geometry":{"type":"Point","coordinates":[-87.6317,41.8851]}},{"type":"Feature","properties":{"Year":2021,"Type":"Office","Project":"301 W Huron","Address":"301W Huron St","Zip Code":60654,"COMBINE":"300 W Huron St, 60654, Chicago, Illinois","Sub-Market":"River North","Developer":"North Wells Capital","Status":"Planned","GFA":142000},"geometry":{"type":"Point","coordinates":[-87.6359,41.895]}}]}