{"type":"FeatureCollection","features":[{"type":"Feature","properties":{"Year":2020,"Type":"Office","Project":"WPP","Address":" 333 N Green St ","Zip Code":60607,"COMBINE":"333 N Green St, 60607, Chicago, Illinois","Sub-Market":"Fulton Market","Developer":"SBC","Status":"Construction","Existing":"Existing","GFA":547000},"geometry":{"type":"Point","coordinates":[-87.647864,41.887674]}},{"type":"Feature","properties":{"Year":2020,"Type":"Office","Project":"Bank of America","Address":" 110 N Wacker Dr ","Zip Code":60606,"COMBINE":"110 N Wacker Dr, 60606, Chicago, Illinois","Sub-Market":"West Loop","Developer":"RIDC/HHC","Status":"Construction","Existing":"Existing","GFA":1300000},"geometry":{"type":"Point","coordinates":[-87.637505,41.883674]}},{"type":"Feature","properties":{"Year":2020,"Type":"Office","Project":"Spectre","Address":" 167 N Green St ","Zip Code":60607,"COMBINE":"167 N Green St, 60607, Chicago, Illinois","Sub-Market":"Fulton Market","Developer":"Shapack / Focus","Status":"Construction","Existing":"Existing","GFA":656500},"geometry":{"type":"Point","coordinates":[-87.647775,41.885408]}},{"type":"Feature","properties":{"Year":2020,"Type":"Office","Project":"West End Fulton","Address":" 1375 W Fulton Market St ","Zip Code":60607,"COMBINE":"1375 W Fulton Market St, 60607, Chicago, Illinois","Sub-Market":"Fulton Market","Developer":"Trammel Crow","Status":"Construction","Existing":"Existing","GFA":315000},"geometry":{"type":"Point","coordinates":[-87.661787,41.886244]}},{"type":"Feature","properties":{"Year":2022,"Type":"Office","Project":"Union Station","Address":" 225 S Canal St ","Zip Code":60606,"COMBINE":"225 S Canal St, 60606, Chicago, Illinois","Sub-Market":"West Loop","Developer":"RIDC/DRW","Status":"Construction","Existing":"Existing","GFA":1350000},"geometry":{"type":"Point","coordinates":[-87.64074,41.877801]}},{"type":"Feature","properties":{"Year":2024,"Type":"Office","Project":"Salesforce","Address":" 343 W Wolf Point Plaza ","Zip Code":60654,"COMBINE":"343 W Wolf Point Plaza, 60654, Chicago, Illinois","Sub-Market":"River North","Developer":"Hines","Status":"Construction","Existing":"Existing","GFA":1300000},"geometry":{"type":"Point","coordinates":[-87.637677,41.887005]}},{"type":"Feature","properties":{"Year":2018,"Type":"Office","Project":"CDW","Address":" 625 Adams St ","Zip Code":60661,"COMBINE":"625 Adams St, 60661, Chicago, Illinois","Sub-Market":"West Loop","Developer":"White Oak","Status":"Lease Up","Existing":"Existing","GFA":425000},"geometry":{"type":"Point","coordinates":[-87.643615,41.878632]}},{"type":"Feature","properties":{"Year":2019,"Type":"Office","Project":"145 S Wells","Address":"145 S Wells St","Zip Code":60606,"COMBINE":"145 S Wells St, 60606, Chicago, Illinois","Sub-Market":"Loop","Developer":"Moceri & Roszak","Status":"Lease Up","Existing":"Existing","GFA":206055},"geometry":{"type":"Point","coordinates":[-87.63344,41.879786]}},{"type":"Feature","properties":{"Year":2018,"Type":"Office","Project":"Twelve01West","Address":" 1201 W Lake St ","Zip Code":60607,"COMBINE":"1201 W Lake St, 60607, Chicago, Illinois","Sub-Market":"Fulton Market","Developer":"McCaffery","Status":"Lease Up","Existing":"Existing","GFA":135000},"geometry":{"type":"Point","coordinates":[-87.657284,41.885006]}},{"type":"Feature","properties":{"Year":2001,"Type":"Office","Project":"UBS Bldg","Address":" 1 N Wacker Dr ","Zip Code":60606,"COMBINE":"1 N Wacker Dr, 60606, Chicago, Illinois","Sub-Market":"West Loop","Developer":"TJBC","Status":"Stabilized","Existing":"Existing","GFA":1373754},"geometry":{"type":"Point","coordinates":[-87.636255,41.882274]}},{"type":"Feature","properties":{"Year":2003,"Type":"Office","Project":"Citadel Center","Address":" 131 S Dearborn St ","Zip Code":60603,"COMBINE":"131 S Dearborn St, 60603, Chicago, Illinois","Sub-Market":"Loop","Developer":"Prime Group","Status":"Stabilized","Existing":"Existing","GFA":1504000},"geometry":{"type":"Point","coordinates":[-87.629045,41.879659]}},{"type":"Feature","properties":{"Year":2004,"Type":"Office","Project":"Deloitte Bldg","Address":" 111 S Wacker Dr ","Zip Code":60606,"COMBINE":"111 S Wacker Dr, 60606, Chicago, Illinois","Sub-Market":"West Loop","Developer":"TJBC","Status":"Stabilized","Existing":"Existing","GFA":1027683},"geometry":{"type":"Point","coordinates":[-87.636452,41.880289]}},{"type":"Feature","properties":{"Year":2005,"Type":"Office","Project":"Hyatt","Address":" 71 S Wacker Dr ","Zip Code":60654,"COMBINE":"71 S Wacker Dr, 60654, Chicago, Illinois","Sub-Market":"West Loop","Developer":"Pritzker","Status":"Stabilized","Existing":"Existing","GFA":1490825},"geometry":{"type":"Point","coordinates":[-87.63603,41.880926]}},{"type":"Feature","properties":{"Year":2005,"Type":"Office","Project":"Sidley Bldg","Address":" 1 S Dearborn St ","Zip Code":60603,"COMBINE":"1 S Dearborn St, 60603, Chicago, Illinois","Sub-Market":"Loop","Developer":"Hines","Status":"Stabilized","Existing":"Existing","GFA":820915},"geometry":{"type":"Point","coordinates":[-87.628712,41.881644]}},{"type":"Feature","properties":{"Year":2009,"Type":"Office","Project":"300 N LaSalle","Address":"300 N LaSalle Dr","Zip Code":60654,"COMBINE":"300 N LaSalle Dr, 60654, Chicago, Illinois","Sub-Market":"River North","Developer":"Hines","Status":"Stabilized","Existing":"Existing","GFA":1302901},"geometry":{"type":"Point","coordinates":[-87.633412,41.888215]}},{"type":"Feature","properties":{"Year":2009,"Type":"Office","Project":"353 N Clark St","Address":"353 N Clark St","Zip Code":60654,"COMBINE":"353 N Clark St, 60654, Chicago, Illinois","Sub-Market":"River North","Developer":"Mesirow","Status":"Stabilized","Existing":"Existing","GFA":1173643},"geometry":{"type":"Point","coordinates":[-87.630308,41.888941]}},{"type":"Feature","properties":{"Year":2009,"Type":"Office","Project":"155 N Wacker","Address":"155 N Wacker Dr","Zip Code":60606,"COMBINE":"155 N Wacker Dr, 60606, Chicago, Illinois","Sub-Market":"West Loop","Developer":"TJBC","Status":"Stabilized","Existing":"Existing","GFA":1152953},"geometry":{"type":"Point","coordinates":[-87.636593,41.884737]}},{"type":"Feature","properties":{"Year":2015,"Type":"Office","Project":"Google","Address":" 1000 W Fulton Market ","Zip Code":60607,"COMBINE":"1000 W Fulton Market, 60607, Chicago, Illinois","Sub-Market":"Fulton Market","Developer":"SBC","Status":"Stabilized","Existing":"Existing","GFA":531190},"geometry":{"type":"Point","coordinates":[-87.652944,41.887061]}},{"type":"Feature","properties":{"Year":2016,"Type":"Office","Project":"150 N Riverside","Address":" 150 N Riverside Plaza ","Zip Code":60606,"COMBINE":"150 N Riverside Plaza, 60606, Chicago, Illinois","Sub-Market":"West Loop","Developer":"RIDC","Status":"Stabilized","Existing":"Existing","GFA":1225000},"geometry":{"type":"Point","coordinates":[-87.638358,41.885102]}},{"type":"Feature","properties":{"Year":2016,"Type":"Office","Project":"River Point","Address":" 444 N Lake St ","Zip Code":60606,"COMBINE":"444 N Lake St, 60606, Chicago, Illinois","Sub-Market":"West Loop","Developer":"Hines","Status":"Stabilized","Existing":"Existing","GFA":1065000},"geometry":{"type":"Point","coordinates":[-87.639345,41.886204]}},{"type":"Feature","properties":{"Year":2017,"Type":"Office","Project":"Fulton West","Address":" 1330 W Fulton Market ","Zip Code":60607,"COMBINE":"1330 W Fulton Market, 60607, Chicago, Illinois","Sub-Market":"Fulton Market","Developer":"SBC","Status":"Stabilized","Existing":"Existing","GFA":290000},"geometry":{"type":"Point","coordinates":[-87.660278,41.887029]}},{"type":"Feature","properties":{"Year":2017,"Type":"Office","Project":"165 N Aberdeen","Address":" 165 N Aberdeen St ","Zip Code":60607,"COMBINE":"165 N Aberdeen St, 60607, Chicago, Illinois","Sub-Market":"Fulton Market","Developer":"MCZ","Status":"Stabilized","Existing":"Existing","GFA":40000},"geometry":{"type":"Point","coordinates":[-87.654153,41.885261]}},{"type":"Feature","properties":{"Year":2018,"Type":"Office","Project":"McDonald's","Address":" 1045 W Randolph St ","Zip Code":60607,"COMBINE":"1045 W Randolph St, 60607, Chicago, Illinois","Sub-Market":"Fulton Market","Developer":"SBC","Status":"Stabilized","Existing":"Existing","GFA":608000},"geometry":{"type":"Point","coordinates":[-87.653874,41.883674]}},{"type":"Feature","properties":{"Year":2018,"Type":"Office","Project":"CH Robinson","Address":" 1515 W Webster Ave ","Zip Code":606014,"COMBINE":"1515 W Webster Ave, 606014, Chicago, Illinois","Sub-Market":"Lincoln Park","Developer":"SBC","Status":"Stabilized","Existing":"Existing","GFA":200000},"geometry":{"type":"Point","coordinates":[-87.666467,41.920844]}},{"type":"Feature","properties":{"Year":2018,"Type":"Office","Project":"CNA Tower","Address":" 151 N Franklin St ","Zip Code":60606,"COMBINE":"151 N Franklin St, 60606, Chicago, Illinois","Sub-Market":"West Loop","Developer":"TJBC","Status":"Stabilized","Existing":"Existing","GFA":820000},"geometry":{"type":"Point","coordinates":[-87.634898,41.884809]}},{"type":"Feature","properties":{"Year":2018,"Type":"Office","Project":"412 N Wells","Address":" 412 N Wells St ","Zip Code":60654,"COMBINE":"412 N Wells St, 60654, Chicago, Illinois","Sub-Market":"River North","Developer":"Centrum","Status":"Stabilized","Existing":"Existing","GFA":50000},"geometry":{"type":"Point","coordinates":[-87.634318,41.889793]}},{"type":"Feature","properties":{"Year":2018,"Type":"Office","Project":"Vendor Village","Address":" 210 N Carpenter St ","Zip Code":60607,"COMBINE":"210 N Carpenter St, 60607, Chicago, Illinois","Sub-Market":"Fulton Market","Developer":"SBC","Status":"Stabilized","Existing":"Existing","GFA":218000},"geometry":{"type":"Point","coordinates":[-87.653869,41.885797]}},{"type":"Feature","properties":{"Year":2018,"Type":"Office","Project":"Spaces","Address":" 900 W Randolph St ","Zip Code":60607,"COMBINE":"900 W Randolph St, 60607, Chicago, Illinois","Sub-Market":"Fulton Market","Developer":"Tucker","Status":"Stabilized","Existing":"Existing","GFA":45000},"geometry":{"type":"Point","coordinates":[-87.650076,41.88463]}},{"type":"Feature","properties":{"Year":2019,"Type":"Office","Project":"811 Fulton","Address":" 811 W Fulton Market ","Zip Code":60607,"COMBINE":"811 W Fulton Market, 60607, Chicago, Illinois","Sub-Market":"Fulton Market","Developer":"Shapack","Status":"Stabilized","Existing":"Existing","GFA":70000},"geometry":{"type":"Point","coordinates":[-87.647837,41.886494]}},{"type":"Feature","properties":{"Year":2019,"Type":"Office","Project":"Mondelez","Address":"905 W Fulton St","Zip Code":60607,"COMBINE":"905 W Fulton St, 60607, Chicago, Illinois","Sub-Market":"Fulton Market","Developer":"Thor","Status":"Stabilized","Existing":"Existing","GFA":77100},"geometry":{"type":"Point","coordinates":[-87.650131,41.886455]}},{"type":"Feature","properties":{"Year":2025,"Type":"Office","Project":"Coyne - Loft","Address":" 330 N Green St ","Zip Code":60607,"COMBINE":"330 N Green St, 60607, Chicago, Illinois","Sub-Market":"Fulton Market","Developer":"SBC","Status":"DPD Approved","Existing":"Planned","GFA":675000},"geometry":{"type":"Point","coordinates":[-87.649323,41.887722]}},{"type":"Feature","properties":{"Year":2025,"Type":"Office","Project":"Coyne - North","Address":" 360 N Green St ","Zip Code":60607,"COMBINE":"360 N Green St, 60607, Chicago, Illinois","Sub-Market":"Fulton Market","Developer":"SBC","Status":"DPD Approved","Existing":"Planned","GFA":501390},"geometry":{"type":"Point","coordinates":[-87.64921,41.888626]}},{"type":"Feature","properties":{"Year":2025,"Type":"Office","Project":"LincolnYards - Office","Address":" 1353 W Cortland St ","Zip Code":60614,"COMBINE":"1353 W Cortland St, 60614, Chicago, Illinois","Sub-Market":"Lincoln Park","Developer":"SBC","Status":"DPD Approved","Existing":"Planned","GFA":4000000},"geometry":{"type":"Point","coordinates":[-87.662258,41.916615]}},{"type":"Feature","properties":{"Year":2025,"Type":"Office","Project":"328 N Carpenter St","Address":" 328 N Carpenter St ","Zip Code":60607,"COMBINE":"328 N Carpenter St, 60607, Chicago, Illinois","Sub-Market":"Fulton Market","Developer":"Murphy","Status":"DPD Approved","Existing":"Planned","GFA":98000},"geometry":{"type":"Point","coordinates":[-87.653711,41.887377]}},{"type":"Feature","properties":{"Year":2025,"Type":"Office","Project":"LincolnYards - Office","Address":" 1685 N Throop St ","Zip Code":60642,"COMBINE":"1685 N Throop St, 60642, Chicago, Illinois","Sub-Market":"Lincoln Park","Developer":"SBC","Status":"DPD Approved","Existing":"Planned","GFA":4000000},"geometry":{"type":"Point","coordinates":[-87.660328,41.914197]}},{"type":"Feature","properties":{"Year":2025,"Type":"Office","Project":"Fire Station","Address":" 55 W Illinois St ","Zip Code":60654,"COMBINE":"55 W Illinois St, 60654, Chicago, Illinois","Sub-Market":"River North","Developer":"Friedman","Status":"DPD Approved","Existing":"Planned","GFA":600000},"geometry":{"type":"Point","coordinates":[-87.629952,41.890663]}},{"type":"Feature","properties":{"Year":2025,"Type":"Office","Project":"310 N Sangamon","Address":"310 N Sangamon St","Zip Code":60607,"COMBINE":"310 N Sangamon St, 60607, Chicago, Illinois","Sub-Market":"Fulton Market","Developer":"Tishman","Status":"DPD Approved","Existing":"Planned","GFA":250000},"geometry":{"type":"Point","coordinates":[-87.651227,41.887229]}},{"type":"Feature","properties":{"Year":2025,"Type":"Office","Project":"Thor","Address":"800 W Fulton Market","Zip Code":60607,"COMBINE":"800 W Fulton Market, 60607, Chicago, Illinois","Sub-Market":"Fulton Market","Developer":"Thor","Status":"DPD Approved","Existing":"Planned","GFA":400000},"geometry":{"type":"Point","coordinates":[-87.648101,41.88713]}},{"type":"Feature","properties":{"Year":2025,"Type":"Office","Project":"78-Office","Address":"1300 S Clark St","Zip Code":60605,"COMBINE":"1300 S Clark St, 60605, Chicago, Illinois","Sub-Market":"South Loop","Developer":"Related","Status":"DPD Approved","Existing":"Planned","GFA":5000000},"geometry":{"type":"Point","coordinates":[-87.630434,41.864433]}},{"type":"Feature","properties":{"Year":2025,"Type":"Office","Project":"English","Address":"488 N LaSalle St","Zip Code":60654,"COMBINE":"488 N LaSalle St, 60654, Chicago, Illinois","Sub-Market":"River North","Developer":"Jay Javors","Status":"DPD Approved","Existing":"Planned","GFA":180000},"geometry":{"type":"Point","coordinates":[-87.632915,41.890381]}},{"type":"Feature","properties":{"Year":2025,"Type":"Office","Project":"Fulton West(2)","Address":" 1301 W Fulton Market ","Zip Code":60607,"COMBINE":"1301 W Fulton Market, 60607, Chicago, Illinois","Sub-Market":"Fulton Market","Developer":"SBC","Status":"PreDev","Existing":"Planned","GFA":412500},"geometry":{"type":"Point","coordinates":[-87.659825,41.886281]}},{"type":"Feature","properties":{"Year":2025,"Type":"Office","Project":"Bird Tower","Address":"400 N May St","Zip Code":60607,"COMBINE":"400 N May St, 60607, Chicago, Illinois","Sub-Market":"Fulton Market","Developer":"MCZ","Status":"PreDev","Existing":"Planned","GFA":324000},"geometry":{"type":"Point","coordinates":[-87.656956,41.889325]}},{"type":"Feature","properties":{"Year":2025,"Type":"Office","Project":"375 N Morgan","Address":"375 N Morgan St","Zip Code":60607,"COMBINE":"375 N Morgan St, 60607, Chicago, Illinois","Sub-Market":"Fulton Market","Developer":"Latsko","Status":"PreDev","Existing":"Planned","GFA":175000},"geometry":{"type":"Point","coordinates":[-87.651992,41.888734]}},{"type":"Feature","properties":{"Year":2025,"Type":"Office","Project":"130 N Franklin","Address":" 130 N Franklin St ","Zip Code":60606,"COMBINE":"130 N Franklin St, 60606, Chicago, Illinois","Sub-Market":"West Loop","Developer":"Tishman","Status":"PreDev","Existing":"Planned","GFA":1200000},"geometry":{"type":"Point","coordinates":[-87.635778,41.883722]}},{"type":"Feature","properties":{"Year":2025,"Type":"Office","Project":"Miller & Son","Address":" 1229 N North Branch St ","Zip Code":60642,"COMBINE":"1229 N North Branch St, 60642, Chicago, Illinois","Sub-Market":"Goose Island","Developer":"Hines","Status":"PreDev","Existing":"Planned","GFA":225000},"geometry":{"type":"Point","coordinates":[-87.656221,41.904404]}},{"type":"Feature","properties":{"Year":2025,"Type":"Office","Project":"301 S Wacker - PH I","Address":" 301 S Wacker Dr ","Zip Code":60606,"COMBINE":"301 S Wacker Dr, 60606, Chicago, Illinois","Sub-Market":"West Loop","Developer":"John Murphy","Status":"PreDev","Existing":"Planned","GFA":1295000},"geometry":{"type":"Point","coordinates":[-87.636276,41.87836]}},{"type":"Feature","properties":{"Year":2025,"Type":"Office","Project":"321 S Wacker - PH II","Address":" 321 S Wacker ","Zip Code":60606,"COMBINE":"321 S Wacker, 60606, Chicago, Illinois","Sub-Market":"West Loop","Developer":"John Murphy","Status":"PreDev","Existing":"Planned","GFA":1295000},"geometry":{"type":"Point","coordinates":[-87.636513,41.878072]}},{"type":"Feature","properties":{"Year":2025,"Type":"Office","Project":"601 Monroe","Address":" 601 W Monroe St ","Zip Code":60661,"COMBINE":"601 W Monroe St, 60661, Chicago, Illinois","Sub-Market":"West Loop","Developer":"Pacific Reach","Status":"PreDev","Existing":"Planned","GFA":735000},"geometry":{"type":"Point","coordinates":[-87.643443,41.880181]}},{"type":"Feature","properties":{"Year":2025,"Type":"Office","Project":"540 West Parcel","Address":" 540 W Madison St ","Zip Code":60661,"COMBINE":"540 W Madison St, 60661, Chicago, Illinois","Sub-Market":"West Loop","Developer":"Joe Mizrachi","Status":"PreDev","Existing":"Planned","GFA":616000},"geometry":{"type":"Point","coordinates":[-87.642499,41.882354]}},{"type":"Feature","properties":{"Year":2025,"Type":"Office","Project":"645 Madison","Address":" 645 W Madison St ","Zip Code":60661,"COMBINE":"645 W Madison St, 60661, Chicago, Illinois","Sub-Market":"West Loop","Developer":"Hines/Golub","Status":"PreDev","Existing":"Planned","GFA":530000},"geometry":{"type":"Point","coordinates":[-87.644666,41.881396]}},{"type":"Feature","properties":{"Year":2025,"Type":"Office","Project":"Pickens Kane","Address":" 909 W Bliss St ","Zip Code":60642,"COMBINE":"909 W Bliss St, 60642, Chicago, Illinois","Sub-Market":"Goose Island","Developer":"R2","Status":"PreDev","Existing":"Planned","GFA":285000},"geometry":{"type":"Point","coordinates":[-87.651383,41.901187]}},{"type":"Feature","properties":{"Year":2025,"Type":"Office","Project":"1200 W Fulton","Address":" 1200 W Fulton Market ","Zip Code":60607,"COMBINE":"1200 W Fulton Market, 60607, Chicago, Illinois","Sub-Market":"Fulton Market","Developer":"IBT Group","Status":"PreDev","Existing":"Planned","GFA":900000},"geometry":{"type":"Point","coordinates":[-87.657455,41.886827]}},{"type":"Feature","properties":{"Year":2025,"Type":"Office","Project":"215 N Peoria","Address":" 215 N Peoria St ","Zip Code":60607,"COMBINE":"215 N Peoria St, 60607, Chicago, Illinois","Sub-Market":"Fulton Market","Developer":"Wislow/Julmy","Status":"PreDev","Existing":"Planned","GFA":120000},"geometry":{"type":"Point","coordinates":[-87.649479,41.886107]}},{"type":"Feature","properties":{"Year":2025,"Type":"Office","Project":"ADM","Address":"1300 W Carroll Ave","Zip Code":60607,"COMBINE":"1300 W Carroll Ave, 60607, Chicago, Illinois","Sub-Market":"Fulton Market","Developer":"SBC","Status":"PreDev","Existing":"Planned","GFA":479160},"geometry":{"type":"Point","coordinates":[-87.659799,41.887863]}},{"type":"Feature","properties":{"Year":2025,"Type":"Office","Project":"Hindman","Address":"224 N Ada St","Zip Code":60607,"COMBINE":"224 N Ada St, 60607, Chicago, Illinois","Sub-Market":"Fulton Market","Developer":"Shapack","Status":"PreDev","Existing":"Planned","GFA":135000},"geometry":{"type":"Point","coordinates":[-87.66112,41.88633]}},{"type":"Feature","properties":{"Year":2025,"Type":"Office","Project":"345 N Morgan","Address":"345 N Morgan St","Zip Code":60607,"COMBINE":"345 N Morgan St, 60607, Chicago, Illinois","Sub-Market":"Fulton Market","Developer":"SBC","Status":"Zoning","Existing":"Planned","GFA":212000},"geometry":{"type":"Point","coordinates":[-87.65187,41.888203]}},{"type":"Feature","properties":{"Year":2025,"Type":"Office","Project":"Pioneer","Address":"1000 W Carroll Ave","Zip Code":60607,"COMBINE":"1000 W Carroll Ave, 60607, Chicago, Illinois","Sub-Market":"Fulton Market","Developer":"SBC","Status":"Zoning","Existing":"Planned","GFA":536000},"geometry":{"type":"Point","coordinates":[-87.652741,41.888031]}},{"type":"Feature","properties":{"Year":2025,"Type":"Office","Project":"Threadless","Address":"1260 W Madison St","Zip Code":60607,"COMBINE":"1260 W Madison St, 60607, Chicago, Illinois","Sub-Market":"Fulton Market","Developer":"JGR","Status":"Zoning","Existing":"Planned","GFA":500000},"geometry":{"type":"Point","coordinates":[-87.659284,41.882237]}},{"type":"Feature","properties":{"Year":2025,"Type":"Office","Project":"308 W Erie","Address":"308 W Erie Street","Zip Code":60654,"COMBINE":"308 W Erie Street, 60654, Chicago, Illinois","Sub-Market":"River North","Developer":"North Wells Capital","Status":"Zoning","Existing":"Planned","GFA":150000},"geometry":{"type":"Point","coordinates":[-87.636065,41.89451]}}]}