{"type":"FeatureCollection","features":[{"type":"Feature","properties":{"Name":"McDonaldâ€™s ","Type":"Sub - Relo","Address":"110 N Carpenter St","Submarket":"Fulton Market","#RSF":486055},"geometry":{"type":"Point","coordinates":[-87.653467,41.88351]}},{"type":"Feature","properties":{"Name":"Walgreens","Type":"Sub - Satellite","Address":"433 W Van Buren St","Submarket":"West Loop","#RSF":250000},"geometry":{"type":"Point","coordinates":[-87.639351,41.876602]}},{"type":"Feature","properties":{"Name":"Nielsen","Type":"Sub - Relo","Address":"200 W Jackson Blvd","Submarket":"West Loop","#RSF":215000},"geometry":{"type":"Point","coordinates":[-87.63418,41.878109]}},{"type":"Feature","properties":{"Name":"Sikich LLP","Type":"Sub - Satellite","Address":"123 N Wacker Dr","Submarket":"West Loop","#RSF":9011},"geometry":{"type":"Point","coordinates":[-87.636819,41.884122]}},{"type":"Feature","properties":{"Name":"W.W. Grainger","Type":"Sub - Satellite","Address":"125 S Clark St","Submarket":"Central Loop","#RSF":24748},"geometry":{"type":"Point","coordinates":[-87.630507,41.879805]}},{"type":"Feature","properties":{"Name":"Wilson","Type":"Sub - Relo","Address":"130 E Randolph St","Submarket":"East Loop","#RSF":90000},"geometry":{"type":"Point","coordinates":[-87.623125,41.884917]}},{"type":"Feature","properties":{"Name":"Oscar Mayer","Type":"New to Market","Address":"200 E Randolph St","Submarket":"East Loop","#RSF":170000},"geometry":{"type":"Point","coordinates":[-87.621524,41.88528]}},{"type":"Feature","properties":{"Name":"Sikich LLP","Type":"Sub - Satellite","Address":"200 W Madison St","Submarket":"West Loop","#RSF":21931},"geometry":{"type":"Point","coordinates":[-87.634711,41.882081]}},{"type":"Feature","properties":{"Name":"EXP","Type":"New to Market","Address":"205 N Michigan Ave","Submarket":"North Michigan Ave","#RSF":0},"geometry":{"type":"Point","coordinates":[-87.623532,41.886044]}},{"type":"Feature","properties":{"Name":"CAT","Type":"Sub - Satellite","Address":"222 Merchandise Mart Plz","Submarket":"River North","#RSF":5000},"geometry":{"type":"Point","coordinates":[-87.635419,41.888221]}},{"type":"Feature","properties":{"Name":"SPINS","Type":"Sub - Relo","Address":"222 W Hubbard St","Submarket":"River North","#RSF":22000},"geometry":{"type":"Point","coordinates":[-87.63524,41.889984]}},{"type":"Feature","properties":{"Name":"Hickory Farms","Type":"New to Market","Address":"311 S Wacker Dr","Submarket":"West Loop","#RSF":7300},"geometry":{"type":"Point","coordinates":[-87.635963,41.877458]}},{"type":"Feature","properties":{"Name":"SC Johnson","Type":"New to Market","Address":"550 W Washington","Submarket":"West Loop","#RSF":50000},"geometry":{"type":"Point","coordinates":[-87.641651,41.88352]}},{"type":"Feature","properties":{"Name":"TmaxSoft","Type":"New to Market","Address":"101 N Wacker Dr","Submarket":"West Loop","#RSF":0},"geometry":{"type":"Point","coordinates":[-87.636409,41.883556]}},{"type":"Feature","properties":{"Name":"ULTA Beauty","Type":"Sub - Satellite","Address":"120 S Riverside Plz","Submarket":"West Loop","#RSF":23000},"geometry":{"type":"Point","coordinates":[-87.639059,41.879707]}},{"type":"Feature","properties":{"Name":"EN Engineering LLC","Type":"Sub - Satellite","Address":"180 N LaSalle St","Submarket":"Central Loop","#RSF":20377},"geometry":{"type":"Point","coordinates":[-87.632814,41.885351]}},{"type":"Feature","properties":{"Name":"Mueller & Co. LLP","Type":"Sub - Satellite","Address":"200 W Adams St","Submarket":"West Loop","#RSF":2313},"geometry":{"type":"Point","coordinates":[-87.634132,41.879694]}},{"type":"Feature","properties":{"Name":"Everspring","Type":"Sub - Relo","Address":"200 W Jackson Blvd","Submarket":"West Loop","#RSF":16851},"geometry":{"type":"Point","coordinates":[-87.63418,41.878109]}},{"type":"Feature","properties":{"Name":"Allstate","Type":"Sub - Satellite","Address":"222 Merchandise Mart Plz","Submarket":"River North","#RSF":45000},"geometry":{"type":"Point","coordinates":[-87.635419,41.888221]}},{"type":"Feature","properties":{"Name":"Beam Suntory","Type":"Sub - Relo","Address":"222 Merchandise Mart Plz","Submarket":"River North","#RSF":112803},"geometry":{"type":"Point","coordinates":[-87.635419,41.888221]}},{"type":"Feature","properties":{"Name":"Crate & Barrel","Type":"Sub - Satellite","Address":"240 N Ashland Ave","Submarket":"Far West Loop","#RSF":66800},"geometry":{"type":"Point","coordinates":[-87.667698,41.886523]}},{"type":"Feature","properties":{"Name":"CDW ","Type":"Sub - Satellite","Address":"333 W Wacker Dr","Submarket":"West Loop","#RSF":3000},"geometry":{"type":"Point","coordinates":[-87.635951,41.886055]}},{"type":"Feature","properties":{"Name":"Insight Global","Type":"Sub - Relo","Address":"353 N Clark St","Submarket":"River North","#RSF":14320},"geometry":{"type":"Point","coordinates":[-87.630308,41.888941]}},{"type":"Feature","properties":{"Name":"Motorola","Type":"Sub - Relo","Address":"500 W Monroe St","Submarket":"West Loop","#RSF":150345},"geometry":{"type":"Point","coordinates":[-87.640606,41.880883]}},{"type":"Feature","properties":{"Name":"Baxalta","Type":"Sub - Satellite","Address":"540 W Madison St","Submarket":"West Loop","#RSF":83000},"geometry":{"type":"Point","coordinates":[-87.641672,41.882235]}},{"type":"Feature","properties":{"Name":"Prescient Edge","Type":"New to Market","Address":"130 E Randolph St","Submarket":"East Loop","#RSF":23616},"geometry":{"type":"Point","coordinates":[-87.623125,41.884917]}},{"type":"Feature","properties":{"Name":"Textura","Type":"Sub - Satellite","Address":"130 E Randolph St","Submarket":"East Loop","#RSF":23400},"geometry":{"type":"Point","coordinates":[-87.623125,41.884917]}},{"type":"Feature","properties":{"Name":"Horizon Pharma","Type":"Sub - Satellite","Address":"150 S Wacker Dr","Submarket":"West Loop","#RSF":6511},"geometry":{"type":"Point","coordinates":[-87.637649,41.879611]}},{"type":"Feature","properties":{"Name":"Kraft/Heinz","Type":"Sub - Relo","Address":"200 E Randolph St","Submarket":"East Loop","#RSF":169696},"geometry":{"type":"Point","coordinates":[-87.621524,41.88528]}},{"type":"Feature","properties":{"Name":"Stats","Type":"Sub - Relo","Address":"203 N LaSalle St","Submarket":"Central Loop","#RSF":76852},"geometry":{"type":"Point","coordinates":[-87.632013,41.886136]}},{"type":"Feature","properties":{"Name":"ConAgra","Type":"Sub - Relo","Address":"222 Merchandise Mart Plz","Submarket":"River North","#RSF":170000},"geometry":{"type":"Point","coordinates":[-87.635419,41.888221]}},{"type":"Feature","properties":{"Name":"Sikich LLP","Type":"Sub - Satellite","Address":"230 W Monroe ","Submarket":"West Loop","#RSF":3000},"geometry":{"type":"Point","coordinates":[-87.634894,41.881016]}},{"type":"Feature","properties":{"Name":"Wintrust ","Type":"Sub - Satellite","Address":"231 S LaSalle St","Submarket":"Central Loop","#RSF":180435},"geometry":{"type":"Point","coordinates":[-87.631954,41.878431]}},{"type":"Feature","properties":{"Name":"Sawdust Investments","Type":"Sub - Relo","Address":"30 S Wacker Dr","Submarket":"West Loop","#RSF":15492},"geometry":{"type":"Point","coordinates":[-87.63744,41.881186]}},{"type":"Feature","properties":{"Name":"Allstate","Type":"Sub - Satellite","Address":"444 W Lake St","Submarket":"West Loop","#RSF":13250},"geometry":{"type":"Point","coordinates":[-87.639381,41.885926]}},{"type":"Feature","properties":{"Name":"Mead Johnson","Type":"Sub - Relo","Address":"444 W Lake St","Submarket":"West Loop","#RSF":76800},"geometry":{"type":"Point","coordinates":[-87.639381,41.885926]}},{"type":"Feature","properties":{"Name":"Assurance Agency, Ltd","Type":"Sub - Relo","Address":"111 N Canal St","Submarket":"West Loop","#RSF":27336},"geometry":{"type":"Point","coordinates":[-87.639791,41.883598]}},{"type":"Feature","properties":{"Name":"Vail Systems","Type":"Sub - Satellite","Address":"2 N Riverside Plz","Submarket":"West Loop","#RSF":10600},"geometry":{"type":"Point","coordinates":[-87.639468,41.882443]}},{"type":"Feature","properties":{"Name":"Peapod","Type":"Sub - Satellite","Address":"20 N Wacker Dr","Submarket":"West Loop","#RSF":11857},"geometry":{"type":"Point","coordinates":[-87.63742,41.882579]}},{"type":"Feature","properties":{"Name":"Global Recruiters Network","Type":"Sub - Satellite","Address":"200 S Wacker Dr","Submarket":"West Loop","#RSF":8500},"geometry":{"type":"Point","coordinates":[-87.637319,41.879035]}},{"type":"Feature","properties":{"Name":"Revenew","Type":"Sub - Satellite","Address":"200 W Monroe St","Submarket":"West Loop","#RSF":5069},"geometry":{"type":"Point","coordinates":[-87.634304,41.881036]}},{"type":"Feature","properties":{"Name":"Medix","Type":"Sub - Relo","Address":"222 S Riverside Plz","Submarket":"West Loop","#RSF":12232},"geometry":{"type":"Point","coordinates":[-87.638765,41.878631]}},{"type":"Feature","properties":{"Name":"Tie Bar","Type":"Sub - Satellite","Address":"224 N Desplaines St","Submarket":"West Loop","#RSF":6897},"geometry":{"type":"Point","coordinates":[-87.644933,41.886499]}},{"type":"Feature","properties":{"Name":"Cappex","Type":"Sub - Satellite","Address":"230 W Monroe St","Submarket":"West Loop","#RSF":9695},"geometry":{"type":"Point","coordinates":[-87.634894,41.881016]}},{"type":"Feature","properties":{"Name":"Monitor Liability Managers (Berkley)","Type":"Sub - Relo","Address":"233 S Wacker Dr","Submarket":"West Loop","#RSF":26654},"geometry":{"type":"Point","coordinates":[-87.635881,41.878886]}},{"type":"Feature","properties":{"Name":"SCOR","Type":"Sub - Relo","Address":"233 S Wacker Dr","Submarket":"West Loop","#RSF":30000},"geometry":{"type":"Point","coordinates":[-87.635881,41.878886]}},{"type":"Feature","properties":{"Name":"SIM Partners","Type":"Sub - Relo","Address":"30 N LaSalle St","Submarket":"Central Loop","#RSF":14560},"geometry":{"type":"Point","coordinates":[-87.63299,41.882813]}},{"type":"Feature","properties":{"Name":"AAR ","Type":"Sub - Satellite","Address":"321 N Clark St","Submarket":"River North","#RSF":3756},"geometry":{"type":"Point","coordinates":[-87.630544,41.888356]}},{"type":"Feature","properties":{"Name":"Discover","Type":"Sub - Satellite","Address":"350 N Orleans St","Submarket":"River North","#RSF":26000},"geometry":{"type":"Point","coordinates":[-87.637766,41.888846]}},{"type":"Feature","properties":{"Name":"ADM (Archer Daniels Midland)","Type":"New to Market","Address":"77 W Wacker Dr","Submarket":"Central Loop","#RSF":45827},"geometry":{"type":"Point","coordinates":[-87.630685,41.886406]}},{"type":"Feature","properties":{"Name":"Stericycle","Type":"Sub - Satellite","Address":"820 N Orleans St","Submarket":"River North","#RSF":4605},"geometry":{"type":"Point","coordinates":[-87.637478,41.897114]}},{"type":"Feature","properties":{"Name":"Zebra Technologies ","Type":"Sub - Satellite","Address":"820 W Jackson Blvd","Submarket":"Far West Loop","#RSF":22500},"geometry":{"type":"Point","coordinates":[-87.64806,41.878272]}},{"type":"Feature","properties":{"Name":"Century Aluminum Co","Type":"New to Market","Address":"1 S Wacker Dr","Submarket":"West Loop","#RSF":16146},"geometry":{"type":"Point","coordinates":[-87.636116,41.88155]}},{"type":"Feature","properties":{"Name":"Medline","Type":"Sub - Satellite","Address":"100 S Wacker Dr","Submarket":"West Loop","#RSF":10979},"geometry":{"type":"Point","coordinates":[-87.637502,41.880327]}},{"type":"Feature","properties":{"Name":"Coeur d'Alene Mines ","Type":"New to Market","Address":"104 S Michigan Ave","Submarket":"East Loop","#RSF":29606},"geometry":{"type":"Point","coordinates":[-87.624657,41.880595]}},{"type":"Feature","properties":{"Name":"GoGo","Type":"Sub - Relo","Address":"111 N Canal St","Submarket":"West Loop","#RSF":230000},"geometry":{"type":"Point","coordinates":[-87.639791,41.883598]}},{"type":"Feature","properties":{"Name":"Retrofit Inc.","Type":"Sub - Satellite","Address":"123 N Wacker Dr","Submarket":"West Loop","#RSF":2964},"geometry":{"type":"Point","coordinates":[-87.636819,41.884122]}},{"type":"Feature","properties":{"Name":"HealthSpring","Type":"Sub - Relo","Address":"175 W Jackson Blvd","Submarket":"West Loop","#RSF":25320},"geometry":{"type":"Point","coordinates":[-87.633327,41.878118]}},{"type":"Feature","properties":{"Name":"IDEX","Type":"Sub - Satellite","Address":"20 N Wacker Dr","Submarket":"West Loop","#RSF":16248},"geometry":{"type":"Point","coordinates":[-87.63742,41.882579]}},{"type":"Feature","properties":{"Name":"NetSuite","Type":"New to Market","Address":"200 N LaSalle St","Submarket":"Central Loop","#RSF":13185},"geometry":{"type":"Point","coordinates":[-87.6328,41.88598]}},{"type":"Feature","properties":{"Name":"Guggenheim","Type":"Sub - Relo","Address":"227 W Monroe St","Submarket":"West Loop","#RSF":38000},"geometry":{"type":"Point","coordinates":[-87.634682,41.88026]}},{"type":"Feature","properties":{"Name":"Assisted Living Concepts","Type":"New to Market","Address":"330 N Wabash Ave","Submarket":"North Michigan Ave","#RSF":25265},"geometry":{"type":"Point","coordinates":[-87.627403,41.88804]}},{"type":"Feature","properties":{"Name":"Kraft Foods Group","Type":"Sub - Satellite","Address":"401 N Michigan Ave","Submarket":"North Michigan Ave","#RSF":43000},"geometry":{"type":"Point","coordinates":[-87.62297,41.889586]}},{"type":"Feature","properties":{"Name":"W.W. Grainger","Type":"Sub - Satellite","Address":"500 W Madison Ave","Submarket":"West Loop","#RSF":36577},"geometry":{"type":"Point","coordinates":[-87.64053,41.882219]}},{"type":"Feature","properties":{"Name":"OpinionLab","Type":"Sub - Relo","Address":"549 W Randolph St","Submarket":"West Loop","#RSF":24052},"geometry":{"type":"Point","coordinates":[-87.641684,41.88416]}},{"type":"Feature","properties":{"Name":"BayRu","Type":"Sub - Satellite","Address":"640 N LaSalle St","Submarket":"River North","#RSF":2000},"geometry":{"type":"Point","coordinates":[-87.63329,41.893624]}},{"type":"Feature","properties":{"Name":"Legal & General Investment Mgmt","Type":"Sub - Relo","Address":"71 S Wacker Dr","Submarket":"West Loop","#RSF":25259},"geometry":{"type":"Point","coordinates":[-87.63603,41.880926]}},{"type":"Feature","properties":{"Name":"Cunningham Lindsey","Type":"Sub - Satellite","Address":"10 S Riverside Plz","Submarket":"West Loop","#RSF":4591},"geometry":{"type":"Point","coordinates":[-87.639118,41.881252]}},{"type":"Feature","properties":{"Name":"Walgreens","Type":"Sub - Satellite","Address":"120 S Riverside Plz","Submarket":"West Loop","#RSF":25172},"geometry":{"type":"Point","coordinates":[-87.639059,41.879707]}},{"type":"Feature","properties":{"Name":"Durata Therapeutics","Type":"New to Market","Address":"200 S Wacker Dr","Submarket":"West Loop","#RSF":10329},"geometry":{"type":"Point","coordinates":[-87.637319,41.879035]}},{"type":"Feature","properties":{"Name":"Presence Health","Type":"Sub - Relo","Address":"200 S Wacker Dr","Submarket":"West Loop","#RSF":50000},"geometry":{"type":"Point","coordinates":[-87.637319,41.879035]}},{"type":"Feature","properties":{"Name":"Reznick Group","Type":"Sub - Relo","Address":"200 S Wacker Dr","Submarket":"West Loop","#RSF":17297},"geometry":{"type":"Point","coordinates":[-87.637319,41.879035]}},{"type":"Feature","properties":{"Name":"Motorola Mobility","Type":"Sub - Relo","Address":"222 Merchandise Mart Plz","Submarket":"River North","#RSF":572079},"geometry":{"type":"Point","coordinates":[-87.635419,41.888221]}},{"type":"Feature","properties":{"Name":"Engagement Health","Type":"Sub - Satellite","Address":"224 N Desplaines St","Submarket":"West Loop","#RSF":4800},"geometry":{"type":"Point","coordinates":[-87.644933,41.886499]}},{"type":"Feature","properties":{"Name":"John Crane Inc.","Type":"Sub - Relo","Address":"227 W Monroe St","Submarket":"West Loop","#RSF":14547},"geometry":{"type":"Point","coordinates":[-87.634682,41.88026]}},{"type":"Feature","properties":{"Name":"Motorola","Type":"Sub - Relo","Address":"233 N Michigan Ave","Submarket":"East Loop","#RSF":24000},"geometry":{"type":"Point","coordinates":[-87.623087,41.887077]}},{"type":"Feature","properties":{"Name":"Catamaran","Type":"Sub - Satellite","Address":"300 N LaSalle St","Submarket":"River North","#RSF":21715},"geometry":{"type":"Point","coordinates":[-87.633412,41.888215]}},{"type":"Feature","properties":{"Name":"Maximus","Type":"Sub - Relo","Address":"303 E Wacker Dr","Submarket":"East Loop","#RSF":69655},"geometry":{"type":"Point","coordinates":[-87.618231,41.887306]}},{"type":"Feature","properties":{"Name":"Aryzta LLC","Type":"Sub - Relo","Address":"350 W Mart Center Dr","Submarket":"River North","#RSF":23877},"geometry":{"type":"Point","coordinates":[-87.637856,41.888242]}},{"type":"Feature","properties":{"Name":"Sara Lee","Type":"Sub - Relo","Address":"400 S Jefferson St","Submarket":"West Loop","#RSF":221089},"geometry":{"type":"Point","coordinates":[-87.643183,41.876079]}},{"type":"Feature","properties":{"Name":"Sterling Partners","Type":"Sub - Relo","Address":"401 N Michigan Ave","Submarket":"North Michigan Ave","#RSF":22358},"geometry":{"type":"Point","coordinates":[-87.62297,41.889586]}},{"type":"Feature","properties":{"Name":"Nokia Xpress","Type":"Sub - Relo","Address":"425 W Randolph St","Submarket":"West Loop","#RSF":307590},"geometry":{"type":"Point","coordinates":[-87.638955,41.884162]}},{"type":"Feature","properties":{"Name":"GE Transportation","Type":"New to Market","Address":"500 W Monroe St","Submarket":"West Loop","#RSF":53972},"geometry":{"type":"Point","coordinates":[-87.640606,41.880883]}},{"type":"Feature","properties":{"Name":"Sagence Group","Type":"Sub - Satellite","Address":"525 W Monroe St","Submarket":"West Loop","#RSF":9500},"geometry":{"type":"Point","coordinates":[-87.640389,41.880245]}},{"type":"Feature","properties":{"Name":"The Marketing Store","Type":"Sub - Relo","Address":"55 W Monroe St","Submarket":"Central Loop","#RSF":31348},"geometry":{"type":"Point","coordinates":[-87.629825,41.880557]}},{"type":"Feature","properties":{"Name":"Capital One Financial Group","Type":"Sub - Relo","Address":"77 W Wacker Dr","Submarket":"Central Loop","#RSF":65484},"geometry":{"type":"Point","coordinates":[-87.630685,41.886406]}},{"type":"Feature","properties":{"Name":"Shure","Type":"Sub - Satellite","Address":"954 W Washington Blvd","Submarket":"Far West Loop","#RSF":3500},"geometry":{"type":"Point","coordinates":[-87.65184,41.883446]}},{"type":"Feature","properties":{"Name":"Thomson Reuters","Type":"Sub - Relo","Address":"1 N Dearborn St","Submarket":"Central Loop","#RSF":40695},"geometry":{"type":"Point","coordinates":[-87.629036,41.882275]}},{"type":"Feature","properties":{"Name":"Gibbs & Soell","Type":"Sub - Relo","Address":"125 S Wacker Dr","Submarket":"West Loop","#RSF":11038},"geometry":{"type":"Point","coordinates":[-87.636555,41.879606]}},{"type":"Feature","properties":{"Name":"Quislex Inc.","Type":"Sub - Satellite","Address":"150 N Wacker Dr","Submarket":"West Loop","#RSF":4210},"geometry":{"type":"Point","coordinates":[-87.637337,41.884762]}},{"type":"Feature","properties":{"Name":"UHC","Type":"Sub - Relo","Address":"155 N Wacker Dr","Submarket":"West Loop","#RSF":55615},"geometry":{"type":"Point","coordinates":[-87.636427,41.88467]}},{"type":"Feature","properties":{"Name":"University Health Systems Consortium","Type":"Sub - Relo","Address":"155 N Wacker Dr","Submarket":"West Loop","#RSF":77109},"geometry":{"type":"Point","coordinates":[-87.636427,41.88467]}},{"type":"Feature","properties":{"Name":"Evraz","Type":"New to Market","Address":"200 E Randolph St","Submarket":"East Loop","#RSF":34868},"geometry":{"type":"Point","coordinates":[-87.621524,41.88528]}},{"type":"Feature","properties":{"Name":"JMC Steel Group, Inc.","Type":"New to Market","Address":"227 W Monroe St","Submarket":"West Loop","#RSF":29000},"geometry":{"type":"Point","coordinates":[-87.634682,41.88026]}},{"type":"Feature","properties":{"Name":"RHR Intl.","Type":"Sub - Satellite","Address":"233 S Wacker Dr","Submarket":"West Loop","#RSF":9800},"geometry":{"type":"Point","coordinates":[-87.635881,41.878886]}},{"type":"Feature","properties":{"Name":"Bel Brands","Type":"Sub - Relo","Address":"30 S Wacker Dr","Submarket":"West Loop","#RSF":27200},"geometry":{"type":"Point","coordinates":[-87.63744,41.881186]}},{"type":"Feature","properties":{"Name":"DeVry Inc.","Type":"New to Market","Address":"300 S Riverside Plz","Submarket":"West Loop","#RSF":77000},"geometry":{"type":"Point","coordinates":[-87.63863,41.87765]}},{"type":"Feature","properties":{"Name":"IfByPhone Inc.","Type":"Sub - Relo","Address":"300 W Adams St","Submarket":"River North","#RSF":20986},"geometry":{"type":"Point","coordinates":[-87.635606,41.879676]}},{"type":"Feature","properties":{"Name":"Chicago Office Technology Group","Type":"Sub - Relo","Address":"1 E Wacker Dr","Submarket":"East Loop","#RSF":22998},"geometry":{"type":"Point","coordinates":[-87.627534,41.886519]}},{"type":"Feature","properties":{"Name":"Silliker","Type":"Sub - Relo","Address":"111 E Wacker Dr","Submarket":"East Loop","#RSF":33164},"geometry":{"type":"Point","coordinates":[-87.623608,41.887674]}},{"type":"Feature","properties":{"Name":"Fiserv","Type":"Sub - Relo","Address":"135 S LaSalle St","Submarket":"Central Loop","#RSF":52977},"geometry":{"type":"Point","coordinates":[-87.631789,41.879785]}},{"type":"Feature","properties":{"Name":"Miller Cooper & Co. Ltd.","Type":"Sub - Satellite","Address":"2 N Riverside Plz","Submarket":"West Loop","#RSF":15423},"geometry":{"type":"Point","coordinates":[-87.639468,41.882443]}},{"type":"Feature","properties":{"Name":"Transystem ","Type":"Sub - Relo","Address":"222 S Riverside Plz","Submarket":"West Loop","#RSF":17933},"geometry":{"type":"Point","coordinates":[-87.638765,41.878631]}},{"type":"Feature","properties":{"Name":"FLOR","Type":"Sub - Relo","Address":"600 W Van Buren St","Submarket":"West Loop","#RSF":12000},"geometry":{"type":"Point","coordinates":[-87.642876,41.876722]}},{"type":"Feature","properties":{"Name":"Akoya Capital LLC","Type":"Sub - Satellite","Address":"625 N Michigan Ave","Submarket":"North Michigan Ave","#RSF":4308},"geometry":{"type":"Point","coordinates":[-87.623654,41.893113]}},{"type":"Feature","properties":{"Name":"Community Counseling Services ","Type":"Sub - Satellite","Address":"155 N Wacker Dr","Submarket":"West Loop","#RSF":8673},"geometry":{"type":"Point","coordinates":[-87.636427,41.88467]}},{"type":"Feature","properties":{"Name":"United Airlines","Type":"Sub - Relo","Address":"233 S Wacker Dr","Submarket":"West Loop","#RSF":400000},"geometry":{"type":"Point","coordinates":[-87.635881,41.878886]}},{"type":"Feature","properties":{"Name":"Willis","Type":"Sub - Relo","Address":"233 S Wacker Dr","Submarket":"West Loop","#RSF":140000},"geometry":{"type":"Point","coordinates":[-87.635881,41.878886]}},{"type":"Feature","properties":{"Name":"IDEO","Type":"Sub - Relo","Address":"626 W Jackson Blvd","Submarket":"West Loop","#RSF":20192},"geometry":{"type":"Point","coordinates":[-87.643487,41.8782]}},{"type":"Feature","properties":{"Name":"BP Trading","Type":"Sub - Relo","Address":"10 S Wacker Dr","Submarket":"West Loop","#RSF":120111},"geometry":{"type":"Point","coordinates":[-87.637558,41.881339]}},{"type":"Feature","properties":{"Name":"Careerbuilder.com","Type":"Sub - Relo","Address":"200 N LaSalle St","Submarket":"Central Loop","#RSF":155000},"geometry":{"type":"Point","coordinates":[-87.6328,41.88598]}},{"type":"Feature","properties":{"Name":"BP","Type":"Sub - Satellite","Address":"30 S Wacker Dr","Submarket":"West Loop","#RSF":120618},"geometry":{"type":"Point","coordinates":[-87.63744,41.881186]}},{"type":"Feature","properties":{"Name":"Walgreens","Type":"Sub - Satellite","Address":"33 S State St","Submarket":"East Loop","#RSF":108531},"geometry":{"type":"Point","coordinates":[-87.62749,41.881184]}},{"type":"Feature","properties":{"Name":"Warantry Group","Type":"Sub - Relo","Address":"175 W Jackson Blvd","Submarket":"Central Loop","#RSF":137512},"geometry":{"type":"Point","coordinates":[-87.633327,41.878118]}},{"type":"Feature","properties":{"Name":"Veolia","Type":"Sub - Relo","Address":"200 E Randolph St","Submarket":"East Loop","#RSF":34500},"geometry":{"type":"Point","coordinates":[-87.621524,41.88528]}},{"type":"Feature","properties":{"Name":"AT&T","Type":"Sub - Relo","Address":"225 W Randolph St","Submarket":"West Loop","#RSF":793373},"geometry":{"type":"Point","coordinates":[-87.634925,41.884047]}}]}